{
"type": "FeatureCollection",
"name": "atms",
"crs": { "type": "name", "properties": { "name": "urn:ogc:def:crs:OGC:1.3:CRS84" } },
"features": [
{ "type": "Feature", "properties": { "Manufacturer": "NCR", "Hardware": "Hardware-ABM", "Name": "RCTVYBUBYCE", "Model ID": "NCR6684", "Serial Number": 24554322456, "Asset Tag": 1001, "Company": "ABC", "Transit": 3330, "Location": "Building false Creek", "address": "103 2nd Ave West", "city": "Vancouver ", "province": "BC", "postalcode": "V5Y1B8", "country": "CA", "Environment ": "PRODUCTION ", "FQDN": "RCTVYBUBYCE.ABC.NET", "IP Address": "192.168.1.1", "Mac Address": "03:5C:99:45:06:56", "Default Gateway": null, "OS": "Windows 10 Enterprise x64", "full_address": "103 2nd Ave West Vancouver BC CA", "latitude": 49.2694767, "longitude": -123.106812 }, "geometry": { "type": "Point", "coordinates": [ -123.106812, 49.2694767 ] } },
{ "type": "Feature", "properties": { "Manufacturer": "NCR", "Hardware": "Hardware-ABM", "Name": "TVYVYCEXTBIG", "Model ID": "NCR6684", "Serial Number": 95445774223, "Asset Tag": 1002, "Company": "XYZ", "Transit": 3090, "Location": "Building - McKenzie Tower", "address": "4 High Street SE", "city": "Calgary", "province": "AB", "postalcode": "T2Z3TB", "country": "CA", "Environment ": "PRODUCTION ", "FQDN": "TVYVYCEXTBIG.XYZ.NET", "IP Address": "192.168.1.2", "Mac Address": "03:5C:99:34:90:30", "Default Gateway": null, "OS": "Windows 10 Enterprise x32", "full_address": "4 High Street SE Calgary AB CA", "latitude": 50.9151529, "longitude": -113.9606692 }, "geometry": { "type": "Point", "coordinates": [ -113.9606692, 50.9151529 ] } },
{ "type": "Feature", "properties": { "Manufacturer": "NCR", "Hardware": "Hardware-ABM", "Name": "TCRCTVYBUBU", "Model ID": "NCR6684", "Serial Number": 45678754321, "Asset Tag": 1003, "Company": "ABC", "Transit": 3097, "Location": "Building - Cambie", "address": "480 SW Marine Drive", "city": "Vancouver ", "province": "BC", "postalcode": "V5X0C4", "country": "CA", "Environment ": "PRODUCTION ", "FQDN": "TCRCTVYBUBU.ABC.COM", "IP Address": "192.168.1.3", "Mac Address": "03:5C:99:00:60:56", "Default Gateway": "192.169.1.0", "OS": "Windows 10 Enterprise x64", "full_address": "480 SW Marine Drive Vancouver BC CA", "latitude": 49.2095712, "longitude": -123.1165849 }, "geometry": { "type": "Point", "coordinates": [ -123.1165849, 49.2095712 ] } },
{ "type": "Feature", "properties": { "Manufacturer": "NCR", "Hardware": "Hardware-ABM", "Name": "TEDFCDGJBER", "Model ID": "NCR6684", "Serial Number": 95445774223, "Asset Tag": 1002, "Company": "XYZ", "Transit": 3090, "Location": "Building - McKenzie Tower", "address": "4 High Street SE", "city": "Calgary", "province": "AB", "postalcode": "T2Z3TB", "country": "CA", "Environment ": "PRODUCTION ", "FQDN": "TVYVYCEXTBIG.XYZ.NET", "IP Address": "192.168.1.2", "Mac Address": "03:5C:99:34:90:30", "Default Gateway": null, "OS": "Windows 10 Enterprise x32", "full_address": "4 High Street SE Calgary AB CA", "latitude": 50.9151529, "longitude": -113.9606692 }, "geometry": { "type": "Point", "coordinates": [ -113.9606692, 50.9151529 ] } }
]
}
